{
  "_coordinatesNote": "Los 29 centroides proceden del NGMEP 2026 del IGN en ETRS89, compatible con WGS84 en la península. Consulta municipality-centroids.json para la trazabilidad CC-BY 4.0.",
  "municipalities": [
    {
      "officialName": "Alpedrete",
      "aliases": [],
      "localities": [],
      "latitude": 40.65886957,
      "longitude": -4.023479111,
      "enabled": true,
      "searchTerms": []
    },
    {
      "officialName": "Becerril de la Sierra",
      "aliases": [
        "Becerril"
      ],
      "localities": [],
      "latitude": 40.71626362,
      "longitude": -3.989401413,
      "enabled": true,
      "searchTerms": []
    },
    {
      "officialName": "Bustarviejo",
      "aliases": [],
      "localities": [],
      "latitude": 40.85908309,
      "longitude": -3.709861585,
      "enabled": true,
      "searchTerms": []
    },
    {
      "officialName": "Cabanillas de la Sierra",
      "aliases": [],
      "localities": [],
      "latitude": 40.81959964,
      "longitude": -3.625928271,
      "enabled": true,
      "searchTerms": []
    },
    {
      "officialName": "Cercedilla",
      "aliases": [],
      "localities": [],
      "latitude": 40.7416083,
      "longitude": -4.055287611,
      "enabled": true,
      "searchTerms": []
    },
    {
      "officialName": "Collado Mediano",
      "aliases": [],
      "localities": [],
      "latitude": 40.69365743,
      "longitude": -4.024391261,
      "enabled": true,
      "searchTerms": []
    },
    {
      "officialName": "Collado Villalba",
      "aliases": [
        "Villalba"
      ],
      "localities": [
        "Villalba Estación",
        "Villalba Pueblo"
      ],
      "latitude": 40.64579798,
      "longitude": -3.991592449,
      "enabled": true,
      "searchTerms": []
    },
    {
      "officialName": "El Boalo",
      "aliases": [
        "Boalo"
      ],
      "localities": [
        "Cerceda",
        "Mataelpino"
      ],
      "latitude": 40.71710553,
      "longitude": -3.920170778,
      "enabled": true,
      "searchTerms": [
        "Cerceda obra nueva",
        "Mataelpino viviendas"
      ]
    },
    {
      "officialName": "El Escorial",
      "aliases": [],
      "localities": [],
      "latitude": 40.58510059,
      "longitude": -4.129576412,
      "enabled": true,
      "searchTerms": []
    },
    {
      "officialName": "Fresnedillas de la Oliva",
      "aliases": [
        "Fresnedillas"
      ],
      "localities": [],
      "latitude": 40.48651273,
      "longitude": -4.172037839,
      "enabled": true,
      "searchTerms": []
    },
    {
      "officialName": "Galapagar",
      "aliases": [],
      "localities": [
        "La Navata"
      ],
      "latitude": 40.5805253,
      "longitude": -4.006090877,
      "enabled": true,
      "searchTerms": []
    },
    {
      "officialName": "Guadalix de la Sierra",
      "aliases": [
        "Guadalix"
      ],
      "localities": [],
      "latitude": 40.78487273,
      "longitude": -3.692752779,
      "enabled": true,
      "searchTerms": []
    },
    {
      "officialName": "Guadarrama",
      "aliases": [],
      "localities": [],
      "latitude": 40.67252357,
      "longitude": -4.08879044,
      "enabled": true,
      "searchTerms": []
    },
    {
      "officialName": "Hoyo de Manzanares",
      "aliases": [
        "Hoyo"
      ],
      "localities": [],
      "latitude": 40.62286422,
      "longitude": -3.907251019,
      "enabled": true,
      "searchTerms": []
    },
    {
      "officialName": "La Cabrera",
      "aliases": [],
      "localities": [],
      "latitude": 40.86419421,
      "longitude": -3.615634572,
      "enabled": true,
      "searchTerms": []
    },
    {
      "officialName": "Los Molinos",
      "aliases": [],
      "localities": [],
      "latitude": 40.71480945,
      "longitude": -4.073654968,
      "enabled": true,
      "searchTerms": []
    },
    {
      "officialName": "Manzanares el Real",
      "aliases": [
        "Manzanares del Real"
      ],
      "localities": [],
      "latitude": 40.72681157,
      "longitude": -3.865187,
      "enabled": true,
      "searchTerms": [
        "La Pedriza"
      ]
    },
    {
      "officialName": "Miraflores de la Sierra",
      "aliases": [
        "Miraflores"
      ],
      "localities": [],
      "latitude": 40.8138022,
      "longitude": -3.766720793,
      "enabled": true,
      "searchTerms": []
    },
    {
      "officialName": "Moralzarzal",
      "aliases": [],
      "localities": [],
      "latitude": 40.67907394,
      "longitude": -3.971736269,
      "enabled": true,
      "searchTerms": []
    },
    {
      "officialName": "Navacerrada",
      "aliases": [],
      "localities": [],
      "latitude": 40.72896591,
      "longitude": -4.014591371,
      "enabled": true,
      "searchTerms": []
    },
    {
      "officialName": "Navalafuente",
      "aliases": [],
      "localities": [],
      "latitude": 40.82334194,
      "longitude": -3.676124515,
      "enabled": true,
      "searchTerms": []
    },
    {
      "officialName": "Navalagamella",
      "aliases": [],
      "localities": [],
      "latitude": 40.46930953,
      "longitude": -4.122788384,
      "enabled": true,
      "searchTerms": []
    },
    {
      "officialName": "Robledo de Chavela",
      "aliases": [
        "Robledo"
      ],
      "localities": [],
      "latitude": 40.50079633,
      "longitude": -4.238261978,
      "enabled": true,
      "searchTerms": []
    },
    {
      "officialName": "San Lorenzo de El Escorial",
      "aliases": [
        "San Lorenzo",
        "San Lorenzo del Escorial"
      ],
      "localities": [],
      "latitude": 40.5914354,
      "longitude": -4.148963237,
      "enabled": true,
      "searchTerms": []
    },
    {
      "officialName": "Santa María de la Alameda",
      "aliases": [
        "Santa Maria de la Alameda"
      ],
      "localities": [],
      "latitude": 40.59570644,
      "longitude": -4.257917119,
      "enabled": true,
      "searchTerms": []
    },
    {
      "officialName": "Soto del Real",
      "aliases": [
        "Soto"
      ],
      "localities": [],
      "latitude": 40.75317934,
      "longitude": -3.786895514,
      "enabled": true,
      "searchTerms": []
    },
    {
      "officialName": "Torrelodones",
      "aliases": [],
      "localities": [
        "La Colonia"
      ],
      "latitude": 40.5756,
      "longitude": -3.929300988,
      "enabled": true,
      "searchTerms": []
    },
    {
      "officialName": "Valdemaqueda",
      "aliases": [],
      "localities": [],
      "latitude": 40.51115053,
      "longitude": -4.295726845,
      "enabled": true,
      "searchTerms": []
    },
    {
      "officialName": "Zarzalejo",
      "aliases": [],
      "localities": [
        "Zarzalejo Estación"
      ],
      "latitude": 40.54730901,
      "longitude": -4.181377779,
      "enabled": true,
      "searchTerms": []
    }
  ]
}
